{
  "cities": [
    {
      "cityname": "Aurelia",
      "places": [
        {
          "placename": "Golden Plaza",
          "description": "Aurelia's central square surrounded by historic buildings and bustling cafes.",
          "image": "https://www.planete-energies.com/sites/default/files/styles/full_width_desktop_940x529/public/migrated_files/images/thumbnails/image/moscow.jpg",
          "latitude": 123.456,
          "longitude": -78.901
        },
        {
          "placename": "Crystal Park",
          "description": "A serene park with shimmering ponds, perfect for a relaxing afternoon.",
          "image": "https://www.planete-energies.com/sites/default/files/styles/full_width_desktop_940x529/public/migrated_files/images/thumbnails/image/moscow.jpg",
          "latitude": 12.345,
          "longitude": -67.89
        },
        {
          "placename": "Sunset Promenade",
          "description": "A scenic waterfront walkway offering stunning views of the setting sun over the sea.",
          "image": "https://www.planete-energies.com/sites/default/files/styles/full_width_desktop_940x529/public/migrated_files/images/thumbnails/image/moscow.jpg",
          "latitude": 13.789,
          "longitude": -68.901
        }
      ]
    },
    {
      "cityname": "Cascadia",
      "places": [
        {
          "placename": "Cascade Falls",
          "description": "A stunning waterfall surrounded by lush greenery, offering hiking trails and picnicking spots.",
          "image": "https://www.planete-energies.com/sites/default/files/styles/full_width_desktop_940x529/public/migrated_files/images/thumbnails/image/moscow.jpg",
          "latitude": 45.678,
          "longitude": -90.123
        },
        {
          "placename": "Skyline Observatory",
          "description": "An observatory at the city's highest point, providing panoramic views of Cascadia's skyline.",
          "image": "https://www.planete-energies.com/sites/default/files/styles/full_width_desktop_940x529/public/migrated_files/images/thumbnails/image/moscow.jpg",
          "latitude": 34.567,
          "longitude": -78.901
        },
        {
          "placename": "Botanical Haven",
          "description": "A botanical garden featuring a diverse array of plants from around the world, organized in themed sections.",
          "image": "https://www.planete-energies.com/sites/default/files/styles/full_width_desktop_940x529/public/migrated_files/images/thumbnails/image/moscow.jpg",
          "latitude": 44.123,
          "longitude": -91.234
        }
      ]
    },
    {
      "cityname": "Oceana Bay",
      "places": [
        {
          "placename": "Marine Pier",
          "description": "A bustling pier with shops, restaurants, and opportunities for boating and fishing.",
          "image": "https://www.planete-energies.com/sites/default/files/styles/full_width_desktop_940x529/public/migrated_files/images/thumbnails/image/moscow.jpg",
          "latitude": 25.7617,
          "longitude": -80.1918
        },
        {
          "placename": "Aquatic Museum",
          "description": "An interactive museum showcasing the diverse marine life found in Oceana Bay's waters.",
          "image": "https://www.planete-energies.com/sites/default/files/styles/full_width_desktop_940x529/public/migrated_files/images/thumbnails/image/moscow.jpg",
          "latitude": 33.6839,
          "longitude": -117.7947
        },
        {
          "placename": "Sunset Beach",
          "description": "A tranquil beach with soft sand and stunning sunset views over the ocean horizon.",
          "image": "https://www.planete-energies.com/sites/default/files/styles/full_width_desktop_940x529/public/migrated_files/images/thumbnails/image/moscow.jpg",
          "latitude": 26.123,
          "longitude": -79.567
        }
      ]
    },
    {
      "cityname": "Veridian Springs",
      "places": [
        {
          "placename": "Botanical Gardens",
          "description": "A sprawling garden with a vast collection of rare plants and themed landscapes.",
          "image": "https://www.planete-energies.com/sites/default/files/styles/full_width_desktop_940x529/public/migrated_files/images/thumbnails/image/moscow.jpg",
          "latitude": 51.5074,
          "longitude": -0.1278
        },
        {
          "placename": "Historic District",
          "description": "Wander through cobblestone streets lined with well-preserved colonial-era buildings.",
          "image": "https://www.planete-energies.com/sites/default/files/styles/full_width_desktop_940x529/public/migrated_files/images/thumbnails/image/moscow.jpg",
          "latitude": 48.8566,
          "longitude": 2.3522
        },
        {
          "placename": "Verdant Lakeside",
          "description": "A peaceful lakeside area with lush vegetation and picnic spots, perfect for a weekend retreat.",
          "image": "https://www.planete-energies.com/sites/default/files/styles/full_width_desktop_940x529/public/migrated_files/images/thumbnails/image/moscow.jpg",
          "latitude": 51.335,
          "longitude": -0.098
        }
      ]
    },
    {
      "cityname": "Nova Harbor",
      "places": [
        {
          "placename": "Starlight Beach",
          "description": "A sandy beach known for its crystal-clear waters and vibrant nightlife.",
          "image": "https://www.planete-energies.com/sites/default/files/styles/full_width_desktop_940x529/public/migrated_files/images/thumbnails/image/moscow.jpg",
          "latitude": -33.8688,
          "longitude": 151.2093
        },
        {
          "placename": "Celestial Tower",
          "description": "An iconic tower offering breathtaking views of the city and the ocean beyond.",
          "image": "https://www.planete-energies.com/sites/default/files/styles/full_width_desktop_940x529/public/migrated_files/images/thumbnails/image/moscow.jpg",
          "latitude": -22.9068,
          "longitude": -43.1729
        },
        {
          "placename": "Harborfront Market",
          "description": "A bustling market along the harbor, featuring local artisans' crafts, fresh seafood, and more.",
          "image": "https://www.planete-energies.com/sites/default/files/styles/full_width_desktop_940x529/public/migrated_files/images/thumbnails/image/moscow.jpg",
          "latitude": -33.8705,
          "longitude": 151.207
        }
      ]
    },
    {
      "cityname": "Sylvan Haven",
      "places": [
        {
          "placename": "Enchanted Forest",
          "description": "A magical forest with winding paths, hidden waterfalls, and whimsical creatures.",
          "image": "https://www.planete-energies.com/sites/default/files/styles/full_width_desktop_940x529/public/migrated_files/images/thumbnails/image/moscow.jpg",
          "latitude": 37.7749,
          "longitude": -122.4194
        },
        {
          "placename": "Twilight Lake",
          "description": "A tranquil lake where visitors can enjoy boating and watch the sunset amidst nature.",
          "image": "https://www.planete-energies.com/sites/default/files/styles/full_width_desktop_940x529/public/migrated_files/images/thumbnails/image/moscow.jpg",
          "latitude": 51.1657,
          "longitude": 10.4515
        },
        {
          "placename": "Whispering Grove",
          "description": "A secluded grove with rare and ancient trees, known for their soothing whispers in the breeze.",
          "image": "https://www.planete-energies.com/sites/default/files/styles/full_width_desktop_940x529/public/migrated_files/images/thumbnails/image/moscow.jpg",
          "latitude": 37.7701,
          "longitude": -122.4225
        }
      ]
    },
    {
      "cityname": "Avalora",
      "places": [
        {
          "placename": "Royal Castle",
          "description": "A majestic castle with opulent interiors, surrounded by beautifully landscaped gardens.",
          "image": "https://www.planete-energies.com/sites/default/files/styles/full_width_desktop_940x529/public/migrated_files/images/thumbnails/image/moscow.jpg",
          "latitude": 51.5074,
          "longitude": -0.1278
        },
        {
          "placename": "Artisan Alley",
          "description": "A bustling street filled with local artisans' shops, showcasing unique crafts and artworks.",
          "image": "https://www.planete-energies.com/sites/default/files/styles/full_width_desktop_940x529/public/migrated_files/images/thumbnails/image/moscow.jpg",
          "latitude": 40.7128,
          "longitude": -74.006
        },
        {
          "placename": "Eternal Gardens",
          "description": "A serene garden with rare and exotic flora, offering a peaceful retreat from the city's hustle and bustle.",
          "image": "https://www.planete-energies.com/sites/default/files/styles/full_width_desktop_940x529/public/migrated_files/images/thumbnails/image/moscow.jpg",
          "latitude": 51.504,
          "longitude": -0.131
        }
      ]
    }
  ]
}
